date,district,division,lat,lon,temp_c,humidity,pressure,wind_speed,clouds,rain,aqi,pm2_5,pm10,o3,no2,so2,co
2025-08-11,Bagerhat,Khulna,22.655478,89.794181,31.65,66,1005,3.94,100,0.0,1,2.65,7.04,39.32,0.14,0.27,112.63
2025-08-11,Bandarban,Chattogram,21.787476,92.412475,33.66,52,1005,1.5,64,0.0,1,0.64,1.28,29.65,0.07,0.03,86.27
2025-08-11,Barguna,Barishal,22.131336,90.117243,30.97,69,1005,4.27,100,0.0,1,0.96,2.84,36.54,0.04,0.06,94.91
2025-08-11,Barishal,Barishal,22.493403,90.354801,32.6,60,1005,3.83,100,0.0,1,1.35,4.48,35.65,0.07,0.11,97.82
2025-08-11,Bhola,Barishal,22.143569,90.790409,29.01,79,1006,3.56,99,0.0,1,0.76,1.59,35.24,0.03,0.04,93.45
2025-08-11,Bogura,Rajshahi,24.850066,89.372843,33.51,57,1004,2.65,99,0.0,3,30.18,35.8,43.6,15.82,15.98,342.86
2025-08-11,Brahmanbaria,Chattogram,23.9606,91.119089,33.06,62,1005,3.09,40,0.0,1,2.27,4.26,35.57,0.88,0.54,114.1
2025-08-11,Chandpur,Chattogram,23.224176,90.6531,31.74,65,1005,3.96,100,0.0,1,0.96,2.09,31.74,0.32,0.3,97.89
2025-08-11,Chapai Nawabganj,Rajshahi,24.599887,88.285047,34.45,53,1004,2.47,90,0.0,3,31.48,34.93,78.39,9.87,18.94,342.21
2025-08-11,Chattogram,Chattogram,22.333778,91.834435,31.93,70,1006,3.09,75,0.0,1,0.58,1.01,29.35,0.05,0.02,84.71
2025-08-11,Chuadanga,Khulna,23.643661,88.846448,33.03,62,1004,3.18,100,0.0,3,27.1,35.08,76.22,8.87,18.31,341.58
2025-08-11,Cox's Bazar,Chattogram,21.176647,92.003505,28.75,77,1006,3.57,58,0.0,1,0.68,1.3,32.24,0.02,0.03,87.09
2025-08-11,Cumilla,Chattogram,23.461061,91.180875,32.56,62,1005,3.13,100,0.0,1,1.41,2.71,33.19,0.49,0.31,102.81
2025-08-11,Dhaka,Dhaka,23.764386,90.389014,32.98,66,1004,2.57,40,0.0,1,3.1,5.07,38.74,1.53,1.66,119.73
2025-08-11,Dinajpur,Rangpur,25.626071,88.634623,33.42,58,1004,2.38,99,0.0,4,62.83,68.71,37.05,21.71,25.91,465.0
2025-08-11,Faridpur,Dhaka,23.604018,89.841554,32.35,65,1005,3.47,99,0.0,1,6.91,9.88,48.28,2.97,4.55,153.71
2025-08-11,Feni,Chattogram,23.01276,91.404923,31.28,68,1005,3.43,100,0.0,1,0.97,1.79,31.91,0.26,0.12,93.39
2025-08-11,Gaibandha,Rangpur,25.086001,89.869644,33.22,59,1004,3.37,98,0.0,2,17.54,22.58,41.43,10.36,6.19,258.16
2025-08-11,Gazipur,Dhaka,23.999756,90.417363,33.01,66,1004,2.57,40,0.0,1,3.2,5.29,38.17,1.61,1.43,122.93
2025-08-11,Gopalganj,Dhaka,23.004994,89.830318,32.95,60,1005,3.42,100,0.0,1,2.3,5.02,40.78,0.72,1.46,112.66
2025-08-11,Habiganj,Sylhet,24.374603,91.414027,32.0,66,1005,2.75,91,0.0,1,2.26,4.03,34.21,1.5,1.51,118.13
2025-08-11,Jamalpur,Mymensingh,24.925587,89.943668,33.21,59,1004,3.13,97,0.0,2,16.29,21.2,40.81,10.02,6.35,247.38
2025-08-11,Jashore,Khulna,23.166526,89.209442,32.34,66,1005,3.75,100,0.0,1,5.78,8.7,54.03,1.99,3.99,156.88
2025-08-11,Jhalokathi,Barishal,22.56239,90.174282,32.62,60,1005,3.92,100,0.0,1,1.49,5.32,35.85,0.08,0.14,98.86
2025-08-11,Jhenaidah,Khulna,23.544696,89.173194,32.68,64,1005,3.15,100,0.0,2,15.25,20.25,65.62,5.61,11.05,244.51
2025-08-11,Joypurhat,Rajshahi,25.111402,88.98842,34.08,55,1004,2.98,100,0.0,3,48.15,53.92,41.76,21.49,31.01,387.73
2025-08-11,Khagrachhari,Chattogram,23.1078,91.988996,33.19,55,1005,1.52,100,0.0,1,0.96,1.66,31.1,0.39,0.15,90.16
2025-08-11,Khulna,Khulna,22.937209,89.285274,32.27,65,1005,4.1,100,0.0,1,5.31,8.5,50.42,1.12,2.21,145.18
2025-08-11,Kishoreganj,Dhaka,24.433982,90.785723,32.49,63,1005,3.53,95,0.0,1,5.99,9.3,42.79,2.23,1.25,136.21
2025-08-11,Kurigram,Rangpur,25.813013,89.643052,31.87,67,1004,3.02,100,0.0,3,25.55,30.6,33.79,15.62,9.8,319.65
2025-08-11,Kushtia,Khulna,23.898795,89.129554,33.04,61,1004,3.26,100,0.0,3,29.75,38.51,77.92,9.66,19.52,352.28
2025-08-11,Lakshmipur,Chattogram,22.944537,90.827635,31.52,65,1005,3.28,100,0.0,1,1.07,2.59,33.55,0.12,0.12,95.88
2025-08-11,Lalmonirhat,Rangpur,25.916351,89.446139,32.69,62,1004,1.5,100,0.0,3,30.29,35.39,32.61,18.35,12.96,342.6
2025-08-11,Madaripur,Dhaka,23.167518,90.204727,33.09,61,1005,3.61,100,0.0,1,1.3,3.57,34.77,0.3,0.45,99.47
2025-08-11,Magura,Khulna,23.488077,89.420182,32.4,66,1005,3.4,100,0.0,1,8.9,12.33,59.32,3.64,6.98,179.18
2025-08-11,Manikganj,Dhaka,23.832984,89.966688,33.22,59,1004,3.98,99,0.0,1,9.19,12.75,51.21,3.95,5.79,172.86
2025-08-11,Meherpur,Khulna,23.781785,88.636937,33.27,60,1004,3.1,100,0.0,3,25.93,32.21,74.7,6.96,13.44,318.83
2025-08-11,Moulvibazar,Sylhet,24.488082,91.763018,31.73,68,1005,2.78,91,0.0,1,2.24,3.84,33.16,1.65,1.52,120.89
2025-08-11,Munshiganj,Dhaka,23.54838,90.534972,33.22,58,1005,4.19,100,0.0,1,1.78,3.33,34.79,0.78,0.78,106.76
2025-08-11,Mymensingh,Mymensingh,24.888931,90.384519,33.23,59,1004,2.52,99,0.0,2,11.54,16.0,42.21,6.11,3.22,192.89
2025-08-11,Naogaon,Rajshahi,24.807323,88.944545,34.21,54,1004,2.94,99,0.0,3,42.94,49.04,44.36,18.8,25.74,392.73
2025-08-11,Narail,Khulna,25.074884,90.391651,32.88,61,1004,2.06,99,0.0,2,12.78,17.62,42.73,6.85,3.25,205.97
2025-08-11,Narayanganj,Dhaka,23.623673,90.498807,33.01,55,1005,4.16,100,0.0,1,2.49,4.31,36.48,1.2,1.11,114.85
2025-08-11,Narsingdi,Dhaka,23.919715,90.715298,33.36,57,1005,3.32,88,0.0,1,2.33,4.29,35.46,1.13,0.67,115.99
2025-08-11,Natore,Rajshahi,24.413185,88.986668,32.74,62,1004,2.6,87,0.0,3,32.52,39.27,49.57,13.41,15.2,402.74
2025-08-11,Netrokona,Mymensingh,24.891567,90.712533,32.42,62,1004,1.8,99,0.0,1,9.53,13.58,47.4,2.59,1.72,154.57
2025-08-11,Nilphamari,Rangpur,25.933927,88.853459,33.09,60,1004,1.8,99,0.0,4,58.04,63.59,27.11,23.28,25.4,442.13
2025-08-11,Noakhali,Chattogram,22.25408,91.17144,28.48,81,1006,2.88,100,0.0,1,0.94,1.98,33.61,0.02,0.04,92.43
2025-08-11,Pabna,Rajshahi,24.006808,89.244834,33.24,59,1004,3.49,100,0.0,2,23.93,30.93,62.07,10.59,14.63,313.44
2025-08-11,Panchagarh,Rangpur,26.320945,88.547114,28.67,79,1004,2.04,100,0.0,4,52.22,57.81,21.97,16.62,9.19,508.56
2025-08-11,Patuakhali,Barishal,22.008424,90.382683,30.42,73,1006,3.44,99,0.0,1,0.89,2.42,36.11,0.04,0.05,94.42
2025-08-11,Pirojpur,Barishal,22.50956,90.00725,31.78,64,1005,3.88,100,0.0,1,1.49,5.32,35.85,0.08,0.14,98.86
2025-08-11,Rajbari,Dhaka,23.739837,89.570413,32.94,61,1005,3.59,98,0.0,2,13.3,17.98,62.87,5.17,9.23,212.01
2025-08-11,Rajshahi,Rajshahi,24.628543,89.037686,33.69,57,1004,2.87,90,0.0,3,32.49,38.69,44.85,15.86,17.46,370.39
2025-08-11,Rangamati,Chattogram,22.650921,92.181433,31.14,63,1005,0.99,100,0.0,1,0.98,1.59,30.69,0.68,0.09,96.28
2025-08-11,Rangpur,Rangpur,25.637614,89.082638,32.85,61,1004,2.46,98,0.0,4,50.08,56.05,32.37,23.0,26.16,394.97
2025-08-11,Satkhira,Khulna,22.716651,89.074986,32.12,66,1005,3.91,100,0.0,1,6.57,9.33,52.36,0.34,0.5,148.33
2025-08-11,Shariatpur,Dhaka,23.213284,90.348125,32.12,66,1005,3.39,100,0.0,1,1.17,2.6,34.45,0.41,0.6,99.44
2025-08-11,Sherpur,Mymensingh,25.022837,90.014974,33.27,59,1004,2.7,96,0.0,2,13.52,18.57,39.24,8.9,3.9,227.1
2025-08-11,Sirajganj,Rajshahi,24.457224,89.705705,31.06,68,1004,3.43,100,0.0,2,17.03,22.38,38.78,12.87,9.21,269.58
2025-08-11,Sunamganj,Sylhet,25.067103,91.398582,31.51,70,1005,1.49,93,0.0,1,7.46,12.39,31.85,8.16,11.06,179.06
2025-08-11,Sylhet,Sylhet,24.89922,91.868527,31.58,66,1005,2.12,98,0.0,1,3.11,4.76,35.86,3.25,2.28,129.04
2025-08-11,Tangail,Dhaka,24.273851,89.937591,32.8,61,1004,3.08,99,0.0,2,12.27,16.54,43.45,7.54,6.38,208.16
2025-08-11,Thakurgaon,Rangpur,23.773143,90.359163,33.02,66,1004,2.57,40,0.0,1,3.1,5.07,38.74,1.53,1.66,119.73
