date,district,division,lat,lon,temp_c,humidity,pressure,wind_speed,clouds,rain,aqi,pm2_5,pm10,o3,no2,so2,co
2025-08-12,Bagerhat,Khulna,22.655478,89.794181,33.33,57,1003,2.64,100,0.0,2,22.29,28.61,82.15,0.32,0.45,283.47
2025-08-12,Bandarban,Chattogram,21.787476,92.412475,31.05,76,1004,0.43,100,0.0,1,1.25,2.12,31.38,0.11,0.03,98.76
2025-08-12,Barguna,Barishal,22.131336,90.117243,31.81,63,1003,4.15,98,0.0,2,12.43,17.65,82.2,0.1,0.13,238.06
2025-08-12,Barishal,Barishal,22.493403,90.354801,33.46,54,1003,3.6,98,0.0,2,14.29,20.22,78.77,0.14,0.18,240.95
2025-08-12,Bhola,Barishal,22.143569,90.790409,29.39,75,1003,3.64,100,0.0,2,9.56,12.42,77.14,0.07,0.09,222.65
2025-08-12,Bogura,Rajshahi,24.850066,89.372843,29.5,78,1002,1.68,98,0.1,4,52.06,59.22,32.21,16.66,14.6,496.23
2025-08-12,Brahmanbaria,Chattogram,23.9606,91.119089,33.06,66,1003,2.57,75,0.0,1,9.1,12.27,59.19,1.18,0.74,202.71
2025-08-12,Chandpur,Chattogram,23.224176,90.6531,31.98,64,1003,2.94,100,0.0,1,6.04,7.72,58.99,0.46,0.41,181.47
2025-08-12,Chapai Nawabganj,Rajshahi,24.599887,88.285047,33.72,57,1002,1.14,99,0.24,4,60.25,68.95,7.93,25.71,28.1,501.88
2025-08-12,Chattogram,Chattogram,22.333778,91.834435,32.93,66,1003,2.06,75,0.0,1,2.73,3.43,41.87,0.09,0.03,126.88
2025-08-12,Chuadanga,Khulna,23.643661,88.846448,31.78,71,1002,2.36,97,0.0,3,44.0,54.4,29.6,26.35,28.95,594.77
2025-08-12,Cox's Bazar,Chattogram,21.176647,92.003505,28.45,81,1004,4.46,73,0.0,1,2.88,3.67,43.85,0.02,0.02,136.24
2025-08-12,Cumilla,Chattogram,23.461061,91.180875,32.46,64,1003,2.33,100,0.0,1,7.32,9.5,59.01,0.63,0.4,189.16
2025-08-12,Dhaka,Dhaka,23.764386,90.389014,31.98,66,1002,3.09,40,0.0,2,8.15,10.12,66.04,1.61,1.06,214.26
2025-08-12,Dinajpur,Rangpur,25.626071,88.634623,34.18,54,1002,1.95,92,0.0,5,98.17,106.34,15.24,31.28,28.81,620.21
2025-08-12,Faridpur,Dhaka,23.604018,89.841554,32.47,64,1002,3.03,100,0.0,2,10.44,12.53,66.69,3.21,3.01,247.46
2025-08-12,Feni,Chattogram,23.01276,91.404923,31.85,66,1003,3.18,100,0.0,1,5.38,6.81,53.86,0.35,0.24,166.99
2025-08-12,Gaibandha,Rangpur,25.086001,89.869644,30.45,74,1002,3.29,98,1.33,3,35.48,40.24,42.99,8.9,3.88,380.68
2025-08-12,Gazipur,Dhaka,23.999756,90.417363,32.01,66,1002,3.09,40,0.0,2,8.49,10.97,63.39,1.86,1.07,213.14
2025-08-12,Gopalganj,Dhaka,23.004994,89.830318,33.72,55,1002,2.75,100,0.0,2,12.69,16.27,72.61,1.21,1.63,239.67
2025-08-12,Habiganj,Sylhet,24.374603,91.414027,32.08,68,1003,2.34,96,0.0,1,7.45,9.74,52.28,2.03,1.86,193.76
2025-08-12,Jamalpur,Mymensingh,24.925587,89.943668,28.88,80,1003,1.83,100,3.65,3,30.72,35.03,47.68,8.14,3.78,357.01
2025-08-12,Jashore,Khulna,23.166526,89.209442,32.0,69,1003,2.33,100,0.0,2,21.24,24.83,72.2,4.28,5.82,310.14
2025-08-12,Jhalokathi,Barishal,22.56239,90.174282,34.08,52,1003,3.05,99,0.0,2,15.84,22.64,79.45,0.16,0.21,249.62
2025-08-12,Jhenaidah,Khulna,23.544696,89.173194,31.9,71,1002,2.5,98,0.0,3,29.34,35.1,50.3,13.89,16.18,426.6
2025-08-12,Joypurhat,Rajshahi,25.111402,88.98842,34.37,56,1002,1.1,86,0.65,4,62.26,70.88,24.74,22.18,36.29,528.66
2025-08-12,Khagrachhari,Chattogram,23.1078,91.988996,33.79,53,1003,0.98,100,0.0,1,3.28,4.17,43.32,0.64,0.48,137.36
2025-08-12,Khulna,Khulna,22.937209,89.285274,32.94,64,1002,3.01,100,0.0,2,23.97,28.13,79.13,2.43,3.27,308.3
2025-08-12,Kishoreganj,Dhaka,24.433982,90.785723,32.24,64,1003,2.33,96,0.0,2,9.07,11.42,65.43,2.54,0.89,223.11
2025-08-12,Kurigram,Rangpur,25.813013,89.643052,32.4,66,1002,4.12,97,0.36,3,41.9,46.71,19.98,16.45,4.62,534.08
2025-08-12,Kushtia,Khulna,23.898795,89.129554,32.17,68,1002,2.66,96,0.0,3,38.9,48.88,30.41,25.22,26.77,563.56
2025-08-12,Lakshmipur,Chattogram,22.944537,90.827635,31.58,65,1003,3.59,100,0.0,2,8.76,11.85,67.33,0.18,0.17,200.08
2025-08-12,Lalmonirhat,Rangpur,25.916351,89.446139,34.0,57,1001,2.39,92,0.1,3,48.43,53.76,17.73,19.11,5.66,585.02
2025-08-12,Madaripur,Dhaka,23.167518,90.204727,32.89,60,1003,2.69,100,0.0,2,9.86,13.18,69.36,0.38,0.38,212.82
2025-08-12,Magura,Khulna,23.488077,89.420182,32.2,68,1002,2.64,100,0.0,2,13.41,16.0,66.11,4.99,6.16,280.79
2025-08-12,Manikganj,Dhaka,23.832984,89.966688,33.26,59,1002,3.37,100,0.0,2,11.12,13.31,65.58,3.98,3.39,258.76
2025-08-12,Meherpur,Khulna,23.781785,88.636937,32.1,68,1002,2.31,100,0.0,3,36.45,44.23,35.55,19.33,20.56,505.33
2025-08-12,Moulvibazar,Sylhet,24.488082,91.763018,29.5,80,1003,0.56,100,0.0,1,7.11,9.28,47.5,2.38,1.8,193.82
2025-08-12,Munshiganj,Dhaka,23.54838,90.534972,33.17,58,1003,3.26,100,0.0,2,7.16,9.09,62.51,0.94,0.65,197.21
2025-08-12,Mymensingh,Mymensingh,24.888931,90.384519,29.99,76,1003,1.82,100,0.15,2,18.82,22.12,55.49,4.59,1.92,281.52
2025-08-12,Naogaon,Rajshahi,24.807323,88.944545,33.14,62,1002,2.1,96,1.33,4,56.9,65.16,26.96,21.17,29.64,531.36
2025-08-12,Narail,Khulna,25.074884,90.391651,28.84,83,1003,2.19,99,0.0,2,22.47,26.31,50.77,5.25,2.18,298.61
2025-08-12,Narayanganj,Dhaka,23.623673,90.498807,32.01,56,1003,3.23,100,0.0,2,7.83,10.03,62.95,1.4,0.86,205.18
2025-08-12,Narsingdi,Dhaka,23.919715,90.715298,32.8,61,1002,2.49,100,0.0,2,8.23,11.06,60.3,1.54,0.79,203.35
2025-08-12,Natore,Rajshahi,24.413185,88.986668,32.08,66,1002,1.25,99,0.0,3,46.18,53.71,31.4,19.16,16.34,536.74
2025-08-12,Netrokona,Mymensingh,24.891567,90.712533,29.16,79,1003,2.76,99,0.0,2,13.95,17.53,58.25,3.77,1.5,252.28
2025-08-12,Nilphamari,Rangpur,25.933927,88.853459,33.76,57,1002,2.02,97,0.0,5,82.32,89.67,15.04,27.67,26.96,588.96
2025-08-12,Noakhali,Chattogram,22.25408,91.17144,28.37,80,1004,3.22,96,0.0,2,6.97,8.95,66.37,0.05,0.06,195.28
2025-08-12,Pabna,Rajshahi,24.006808,89.244834,32.45,65,1002,2.47,99,0.0,3,31.67,38.15,42.11,15.64,14.68,442.24
2025-08-12,Panchagarh,Rangpur,26.320945,88.547114,33.58,58,1001,2.81,99,0.0,4,69.61,75.38,6.63,25.74,7.34,654.6
2025-08-12,Patuakhali,Barishal,22.008424,90.382683,30.66,69,1003,3.78,100,0.0,2,11.47,15.9,80.51,0.09,0.12,232.92
2025-08-12,Pirojpur,Barishal,22.50956,90.00725,33.88,53,1003,3.07,100,0.0,2,15.84,22.64,79.45,0.16,0.21,249.62
2025-08-12,Rajbari,Dhaka,23.739837,89.570413,32.69,65,1002,3.17,100,0.0,2,14.36,17.17,61.85,5.97,6.53,295.83
2025-08-12,Rajshahi,Rajshahi,24.628543,89.037686,32.29,66,1002,1.48,97,0.15,3,48.99,56.33,32.23,17.94,17.75,504.17
2025-08-12,Rangamati,Chattogram,22.650921,92.181433,31.59,61,1003,0.44,100,0.0,1,3.18,4.33,40.1,1.76,0.23,151.69
2025-08-12,Rangpur,Rangpur,25.637614,89.082638,34.1,56,1002,1.7,95,0.0,4,72.89,80.68,15.86,26.7,25.88,572.84
2025-08-12,Satkhira,Khulna,22.716651,89.074986,32.74,65,1003,3.02,100,0.0,3,28.73,32.51,88.02,0.75,0.88,315.42
2025-08-12,Shariatpur,Dhaka,23.213284,90.348125,31.77,66,1003,2.79,100,0.0,2,6.95,8.59,65.13,0.49,0.47,196.94
2025-08-12,Sherpur,Mymensingh,25.022837,90.014974,29.18,79,1003,2.64,99,3.65,3,25.51,29.17,48.83,5.68,2.37,314.47
2025-08-12,Sirajganj,Rajshahi,24.457224,89.705705,30.31,74,1003,2.55,100,0.0,3,29.68,34.29,49.44,9.57,5.49,359.84
2025-08-12,Sunamganj,Sylhet,25.067103,91.398582,29.03,82,1003,2.2,89,0.0,2,14.45,17.85,41.63,13.25,11.26,285.48
2025-08-12,Sylhet,Sylhet,24.89922,91.868527,28.54,83,1003,1.2,96,0.0,1,8.17,10.25,36.46,7.07,2.05,200.93
2025-08-12,Tangail,Dhaka,24.273851,89.937591,31.75,67,1002,2.21,99,0.0,2,17.85,20.83,59.9,5.73,3.51,292.7
2025-08-12,Thakurgaon,Rangpur,23.773143,90.359163,32.02,66,1002,3.09,40,0.0,2,8.15,10.12,66.04,1.61,1.06,214.26
